{
    "beaches": [
        {
            "city": "Goa",
            "places": [
                {
                    "name": "Baga Beach",
                    "description": "One of the most popular beaches in Goa.",
                    "latitude": 15.5527,
                    "longitude": 73.7517
                },
                {
                    "name": "Calangute Beach",
                    "description": "The queen of beaches in Goa.",
                    "latitude": 15.5430,
                    "longitude": 73.7550
                }
            ]
        },
        {
            "city": "Digha",
            "places": [
                {
                    "name": "New Digha Beach",
                    "description": "A popular tourist destination in West Bengal.",
                    "latitude": 21.6254,
                    "longitude": 87.5295
                }
            ]
        }
    ],
    "mountains": [
        {
            "city": "Leh-Ladakh",
            "places": [
                {
                    "name": "Pangong Lake",
                    "description": "A stunning lake surrounded by mountains.",
                    "latitude": 33.7275,
                    "longitude": 78.4758
                },
                {
                    "name": "Khardung La",
                    "description": "One of the highest motorable passes in the world.",
                    "latitude": 34.2806,
                    "longitude": 77.6089
                }
            ]
        }
    ]
}
